[
  {
    "code": "SHA",
    "name": "上海虹桥国际机场",
    "city": "上海",
    "country": "中国",
    "lat": 31.19242924164435,
    "lng": 121.3343399115745
  },
  {
    "code": "PVG",
    "name": "上海浦东国际机场",
    "city": "上海",
    "country": "中国",
    "lat": 31.1443651117806,
    "lng": 121.80827728994603
  },
  {
    "code": "WUX",
    "name": "无锡苏南硕放国际机场",
    "city": "无锡",
    "country": "中国",
    "lat": 31.498686623139612,
    "lng": 120.43525494348043
  },
  {
    "code": "CAN",
    "name": "广州白云国际机场",
    "city": "广州",
    "country": "中国",
    "lat": 23.395925789831395,
    "lng": 113.30795775229434
  },
  {
    "code": "PEK",
    "name": "北京首都国际机场",
    "city": "北京",
    "country": "中国",
    "lat": 40.0798577302384,
    "lng": 116.60311273933449
  },
  {
    "code": "XIY",
    "name": "西安咸阳国际机场",
    "city": "西安",
    "country": "中国",
    "lat": 34.43711229819336,
    "lng": 108.75733318794258
  },
  {
    "code": "HGH",
    "name": "杭州萧山国际机场",
    "city": "杭州",
    "country": "中国",
    "lat": 30.235985651814026,
    "lng": 120.43884778085413
  },
  {
    "code": "SZX",
    "name": "深圳宝安国际机场",
    "city": "深圳",
    "country": "中国",
    "lat": 22.63685768631307,
    "lng":  113.81462745361651
  },
  {
    "code": "NKG",
    "name": "南京禄口国际机场",
    "city": "南京",
    "country": "中国",
    "lat": 31.73355665776698,
    "lng": 118.87143557578136
  }
]
